{
  "_comment": "Local IBE articles relevant to Seymour and Jackson County. Each links out to ibetcg.netlify.app. Severity: positive | info | warning | alert. Where the subject business has a known address, lat/lon are filled so the map can place it.",
  "updatedAt": "2026-04-29T00:00:00Z",
  "articles": [
    { "slug": "kfc-seymour-tipton",         "title": "KFC on Tipton St — cold food, undercooked chicken",                "severity": "alert",   "lat": 38.9580, "lon": -85.8842, "address": "1127 E Tipton St, Seymour, IN 47274",        "blurb": "Gary visited and got cold food and undercooked chicken — same pattern customers have been complaining about for months." },
    { "slug": "verified-american-rental",   "title": "Verified 5-star — American Rental Seymour",                       "severity": "positive","lat": 38.9494, "lon": -85.8728, "address": "1201 A Ave E, Seymour, IN 47274",            "blurb": "BBB-accredited since 2004. A+ rating, 50+ locations, 45-year history. A clear example of the IBE Legacy Operator framework." },
    { "slug": "jackson-manufacturing-audit","title": "Jackson County Manufacturing Audit — Top 10 Employers",             "severity": "info",    "lat": 38.9788, "lon": -85.9170, "address": "Jackson County, IN",                          "blurb": "Deep dive on the 10 biggest manufacturing employers — Aisin, Valeo, Cummins Seymour, Silgan, Cerrowire, and more." },
    { "slug": "seymour-bottom-10",          "title": "Seymour Bottom 10 — local businesses investigated",                "severity": "warning", "lat": 38.9595, "lon": -85.8903, "address": "Various — Seymour, IN",                       "blurb": "10-part series on the worst-rated local businesses in town. Food, lodging, repair, contracting." },
    { "slug": "jcbank",                     "title": "JCBank — the 100-year-old bank that still acts like a neighbor",   "severity": "positive","lat": 38.9590, "lon": -85.8907, "address": "125 S Chestnut St, Seymour, IN 47274",       "blurb": "Headquartered in Seymour, regional community bank that still feels like a neighborhood institution." },
    { "slug": "summit",                     "title": "Summit Cleaners — 70 years of laundry, not just dry cleaning",     "severity": "positive","lat": 38.9580, "lon": -85.8910, "address": "Downtown Seymour, IN",                       "blurb": "Tucked along a quiet stretch of downtown. Worn counters, the smell of detergent, decades of trust." },
    { "slug": "crave",                      "title": "Crave Nutrition — Seymour's wellness café incognito",              "severity": "positive","lat": 38.9569, "lon": -85.8780, "address": "Seymour, IN",                                "blurb": "Smoothie bowls, protein shakes, protein-infused coffee — a hidden gem in the wellness corridor." },
    { "slug": "moxie",                      "title": "Moxie Coffee Company — Seymour's downtown third place",            "severity": "positive","lat": 38.9596, "lon": -85.8915, "address": "Steinker Platz, Seymour, IN",                "blurb": "Corner storefront with oversized windows. A steady, unflashy hum of conversation." },
    { "slug": "darlage",                    "title": "Darlage Greenhouse — the underground yard architect",              "severity": "positive","lat": 38.9990, "lon": -85.9030, "address": "Five miles outside town, Jackson County, IN", "blurb": "Looks like a roadside stop, functions like Seymour's hidden landscaping HQ." },
    { "slug": "jubilee",                    "title": "Jubilee Flowers & Gift Baskets — Seymour's emotional backchannel", "severity": "positive","lat": 38.9636, "lon": -85.8830, "address": "Michigan Ave, Seymour, IN",                  "blurb": "Off-downtown stretch on Michigan Ave. The kind of place people avoid until they absolutely can't." },
    { "slug": "decorating",                 "title": "Seymour Decorating Center — the silent partner to home renos",     "severity": "positive","lat": 38.9580, "lon": -85.8920, "address": "Seymour, IN",                                "blurb": "Looks like a paint store, secretly a full-service design consult." },
    { "slug": "sexton",                     "title": "Sexton Advertising — Seymour's low-key brand machine",             "severity": "positive","lat": 38.9590, "lon": -85.8930, "address": "Just off downtown, Seymour, IN",             "blurb": "Logos on Seymour's work trucks, custom tees on local teams, magnets on everything that moves." },
    { "slug": "schools",                    "title": "Seymour schools under pressure — safety, surveillance, anxiety",   "severity": "info",    "lat": 38.9696, "lon": -85.8718, "address": "Seymour Community Schools, Seymour, IN",     "blurb": "Why the 5,000-student district sits in a crossfire of politics, policing, and budget pressure." },
    { "slug": "microcosm",                  "title": "Seymour, Indiana — a microcosm of America's clash",                "severity": "info",    "lat": 38.9595, "lon": -85.8903, "address": "Seymour, IN",                                "blurb": "Why what happens here mirrors small towns across the country." },
    { "slug": "ice-raids",                  "title": "ICE raids — Seymour and the Jackson County response",              "severity": "warning", "lat": 38.9595, "lon": -85.8903, "address": "Seymour, IN",                                "blurb": "Coverage of immigration enforcement actions in town and the community response." },
    { "slug": "homeless",                   "title": "Homelessness in Seymour — the hidden picture",                     "severity": "info",    "lat": 38.9595, "lon": -85.8903, "address": "Seymour, IN",                                "blurb": "Who's homeless in Seymour, where they're staying, and the gaps in service." },
    { "slug": "drugs",                      "title": "Drugs — the ground-truth picture in Jackson County",               "severity": "info",    "lat": 38.9595, "lon": -85.8903, "address": "Jackson County, IN",                         "blurb": "How methamphetamine, fentanyl, and pill diversion play out locally — beyond the headlines." },
    { "slug": "emergency",                  "title": "Emergency services — stretched thin in Seymour",                   "severity": "warning", "lat": 38.9606, "lon": -85.8898, "address": "Seymour, IN",                                "blurb": "Police, fire, EMS — what the call volumes look like and where the pressure points are." },
    { "slug": "flock",                      "title": "Flock cameras — surveillance in Seymour",                          "severity": "warning", "lat": 38.9595, "lon": -85.8903, "address": "Seymour, IN",                                "blurb": "Where Flock automated license-plate readers are deployed locally and what's been disclosed." },
    { "slug": "reentry-indiana",            "title": "Reentry in Southern Indiana — the catch-22 of coming home",        "severity": "info",    "lat": 38.9595, "lon": -85.8903, "address": "Seymour / Scottsburg / Austin / Crothersville / Madison / Salem", "blurb": "Why reentry from prison is harder in southern Indiana than people think." },
    { "slug": "jail",                       "title": "Jackson County Jail — roster analysis & booking patterns",         "severity": "info",    "lat": 38.8836, "lon": -86.0405, "address": "Jackson County, IN",                         "blurb": "What public booking data shows about who ends up in the county jail and why." },
    { "slug": "business-crossfire",         "title": "Business in the crossfire — operators caught in local politics",   "severity": "warning", "lat": 38.9595, "lon": -85.8903, "address": "Seymour, IN",                                "blurb": "When local business decisions get hit by political crossfire." },
    { "slug": "power-money-politics-2026",  "title": "Power, Money & Politics 2026 — statewide context",                 "severity": "info",    "lat": 39.7684, "lon": -86.1581, "address": "Indiana statewide",                          "blurb": "Why the 2026 statewide picture matters for Seymour's businesses." }
  ]
}
